<?xml version="1.0" encoding="gb2312" standalone="yes"?>
<Travel>
    <travelTitle>苏州奥兰德海洋村圆融店</travelTitle>
    <travelCity>苏州</travelCity>
    <weather>
        <city>苏州</city>
        <status1>多云</status1>
        <status2>多云</status2>
        <figure1>duoyun</figure1>
        <figure2>duoyun</figure2>
        <direction1>东南风</direction1>
        <direction2>东南风</direction2>
        <power1>3-4</power1>
        <power2>3-4</power2>
        <temperature1>22</temperature1>
        <temperature2>15</temperature2>
        <ssd>6</ssd>
        <tgd1>21</tgd1>
        <tgd2>21</tgd2>
        <zwx>1</zwx>
        <ktk>4</ktk>
        <pollution>1</pollution>
        <xcz>5</xcz>
        <zho/>
        <diy/>
        <fas/>
        <chy>3</chy>
        <zho_shuoming>暂无</zho_shuoming>
        <diy_shuoming>暂无</diy_shuoming>
        <fas_shuoming>暂无</fas_shuoming>
        <chy_shuoming>单层薄衫、裤薄型棉衫、长裤、针织长袖衫、长袖T恤。薄型套装、牛仔衫裤、西服套装、薄型夹克</chy_shuoming>
        <pollution_l>优</pollution_l>
        <zwx_l>最弱</zwx_l>
        <ssd_l>温暖舒适</ssd_l>
        <fas_l>暂无</fas_l>
        <zho_l>暂无</zho_l>
        <chy_l>单衣类</chy_l>
        <ktk_l>不需要开启</ktk_l>
        <xcz_l>不适宜</xcz_l>
        <diy_l>暂无</diy_l>
        <pollution_s>非常有利于空气污染物扩散</pollution_s>
        <zwx_s>紫外线最弱</zwx_s>
        <ssd_s>天气状况良好时，多到户外活动，并可适当增加户外活动时间。</ssd_s>
        <ktk_s>不需要开启空调</ktk_s>
        <xcz_s>洗车后当日有降水、大风或沙尘天气，不适宜洗车</xcz_s>
        <gm>1</gm>
        <gm_l>低发期</gm_l>
        <gm_s>天气舒适，不易发生感冒；</gm_s>
        <yd>1</yd>
        <yd_l>非常适宜</yd_l>
        <yd_s>非常适宜户外运动；</yd_s>
        <savedate_weather>2015-04-17</savedate_weather>
        <savedate_life>2015-04-17</savedate_life>
        <savedate_zhishu>2015-04-17</savedate_zhishu>
        <udatetime>2015-04-17 07:25:00</udatetime>
    </weather>
    <listScenery>
        <imgurl>http://upload.17u.com/uploadfile/2015/02/15/2/201502151555332634787.jpg</imgurl>
        <referral>专为孩子设计的一个安全、好玩、刺激的区域，让充满冒险精神的孩子们在挑战自我的同时享受冒险带来的刺激与快乐，另外潜水体验，近距离观察海洋生物，接触海洋生物，海底永远是神秘的，深不可测的，让人遐想，令人神往，就像人的一生，没有尽头，却有无限的绚烂景色！</referral>
        <title>游玩景点苏州奥兰德海洋村圆融店|理由1全国第一家以海洋为主题的大型亲子乐园。理由2还有海洋的东西&amp;rsquo;鲨鱼，海象，鳄鱼，食人鱼，亲亲鱼，帝王三间。理由3这里是一个整洁的、有序的、具有童真闲趣的田园牧场。</title>
    </listScenery>
    <listScenery>
        <imgurl>http://upload.17u.com/uploadfile/2015/02/12/2/20150212113111791962.jpg</imgurl>
        <referral>这里是一个整洁的、有序的、具有童真闲趣的田园牧场。饲养有萌态可掬的奶牛、绵羊、小鸡、小鸭、钓鱼，这里可以种植天然健康的绿色蔬菜，做一个真正的村民！直接的接触自认，回归质朴，体验到劳动和收获。农田山野，是一个孩子们极其渴望探索，充满诱惑的乐趣天堂！</referral>
        <title>游玩景点苏州奥兰德海洋村圆融店</title>
    </listScenery>
    <listRestaurant>
        <name>湖东一号婚礼喜宴会所</name>
        <location>
            <lat>31.323377</lat>
            <lng>120.717673</lng>
        </location>
        <address>苏州市吴中区苏州工业园区右岸街现代休闲广场1层</address>
        <telephone>(0512)62810005</telephone>
        <uid>fbe3f25d5a947babbfa8221c</uid>
    </listRestaurant>
    <listRestaurant>
        <name>老北门饭店月光码头店</name>
        <location>
            <lat>31.327649</lat>
            <lng>120.711445</lng>
        </location>
        <address>苏州工业园区月光码头A1号(近科文博览中心)</address>
        <telephone>(0512)69367738,(0512)69367728</telephone>
        <uid>39d43f82ceea339fa9059d83</uid>
    </listRestaurant>
    <listRestaurant>
        <name>日式寿喜烧火锅</name>
        <location>
            <lat>31.327271</lat>
            <lng>120.719264</lng>
        </location>
        <address>苏州工业园区旺墩路268号圆融时代广场10栋103室(华池街口)</address>
        <telephone>(0512)66966200</telephone>
        <uid>a5097bfaa508da7af03cbac4</uid>
    </listRestaurant>
    <listRestaurant>
        <name>金鸡湖名致精品酒店公寓-中餐厅</name>
        <location>
            <lat>31.331119</lat>
            <lng>120.726011</lng>
        </location>
        <address>嘉瑞巷8号乐嘉大厦4层</address>
        <telephone>(0512)62622288</telephone>
        <uid>20b593a6129f4641ad31e528</uid>
    </listRestaurant>
    <listRestaurant>
        <name>东吴面馆星湖街店</name>
        <location>
            <lat>31.327896</lat>
            <lng>120.725092</lng>
        </location>
        <address>工业园区星湖街金鸡湖商业广场F城109室</address>
        <uid>4f55ff9057053ed1f942b2bb</uid>
    </listRestaurant>
    <listRestaurant>
        <name>松鹤楼(圆融星座店)</name>
        <location>
            <lat>31.325151</lat>
            <lng>120.721755</lng>
        </location>
        <address>苏州工业园区旺敦路269号-1F园区圆融星座店</address>
        <telephone>(0512)62607768</telephone>
        <uid>74b892a00f8b70862fb90864</uid>
    </listRestaurant>
    <listRestaurant>
        <name>松鹤楼园区店</name>
        <location>
            <lat>31.326338</lat>
            <lng>120.708796</lng>
        </location>
        <address>苏州市吴中区</address>
        <uid>5a3dca7d7232cb7afea77852</uid>
    </listRestaurant>
    <listRestaurant>
        <name>肯德基时代广场餐厅-洗手间</name>
        <location>
            <lat>31.326346</lat>
            <lng>120.719173</lng>
        </location>
        <address>圆融时代广场n6区12幢103室</address>
        <uid>d15d05ce768c1187afee7ac1</uid>
    </listRestaurant>
    <listRestaurant>
        <name>金海华.玲珑国际.赫本餐厅</name>
        <location>
            <lat>31.329731</lat>
            <lng>120.706693</lng>
        </location>
        <address>江苏省苏州市吴中区翠园路</address>
        <uid>4472a74d55bf579d9a005019</uid>
    </listRestaurant>
    <listRestaurant>
        <name>柏宜酒店（苏州金鸡湖博览中心店）</name>
        <location>
            <lat>31.32903</lat>
            <lng>120.725095</lng>
        </location>
        <address>苏州金鸡湖商业广场8幢108室（苏州大道东（原翠园路）与星湖街交接口地铁1号线星湖街站1号出口处）</address>
        <telephone>(0512)62953688</telephone>
        <uid>2921a04562baf9d9f503b892</uid>
    </listRestaurant>
    <listBank>
        <name>台北富邦银行苏州代表处</name>
        <location>
            <lat>31.328135</lat>
            <lng>120.721131</lng>
        </location>
        <address>时代广场23栋广运金融大楼611</address>
        <uid>1cc525f6b74af76314c8f6ba</uid>
    </listBank>
    <listBank>
        <name>上海银行24小时自助银行(苏州分行)</name>
        <location>
            <lat>31.328629</lat>
            <lng>120.721342</lng>
        </location>
        <address>苏州工业园区时代广场23栋B座</address>
        <telephone>(0512)66960660</telephone>
        <uid>525cf8c43be151d39cec2bae</uid>
    </listBank>
    <listBank>
        <name>中国民生银行24小时自助银行(苏州分行营业部)</name>
        <location>
            <lat>31.328528</lat>
            <lng>120.719764</lng>
        </location>
        <address>时代广场23幢</address>
        <uid>0c2ca67db8cb40472e4733c9</uid>
    </listBank>
    <listBank>
        <name>中国民生银行(分行营业部)</name>
        <location>
            <lat>31.328297</lat>
            <lng>120.719783</lng>
        </location>
        <address>苏州工业园区旺墩路268号圆融时代广场1层</address>
        <telephone>(0512)67900003</telephone>
        <uid>1cccb5c0172dbda748fc8d69</uid>
    </listBank>
    <listBank>
        <name>中国民生银行(苏州分行营业部)</name>
        <location>
            <lat>31.32812</lat>
            <lng>120.719783</lng>
        </location>
        <address>工业园区星海街200号星海国际广场(苏绣路口)</address>
        <uid>a3a57b75a375e8dc29fc484c</uid>
    </listBank>
    <listBank>
        <name>上海银行(苏州分行)</name>
        <location>
            <lat>31.328497</lat>
            <lng>120.72171</lng>
        </location>
        <address>苏州工业园区旺墩路268号圆融时代广场1层</address>
        <telephone>(0512)66960660</telephone>
        <uid>1e16c74a6fb14e43c9c3db75</uid>
    </listBank>
    <listBank>
        <name>中国民生银行(苏州分行营业部)</name>
        <location>
            <lat>31.327981</lat>
            <lng>120.719813</lng>
        </location>
        <address>苏州市吴中区苏州工业园区时代广场23幢</address>
        <uid>f105a32909d0e92682a12eda</uid>
    </listBank>
    <listBank>
        <name>南洋商业银行ATM</name>
        <location>
            <lat>31.329392</lat>
            <lng>120.720353</lng>
        </location>
        <address>华池街88号</address>
        <uid>2870f34cfa100c66e8e582dd</uid>
    </listBank>
    <listBank>
        <name>合作金库银行苏州分行</name>
        <location>
            <lat>31.327942</lat>
            <lng>120.719205</lng>
        </location>
        <address>圆融时代广场附近苏州国际金融中心</address>
        <telephone>(0512)62958895</telephone>
        <uid>0bd7c3c26661e25b42d63e85</uid>
    </listBank>
    <listBank>
        <name>韩国国民银行(苏州分行)</name>
        <location>
            <lat>31.327942</lat>
            <lng>120.719205</lng>
        </location>
        <address>圆融时代广场附近苏州国际金融中心</address>
        <telephone>(0512)62967505</telephone>
        <uid>8546077902e2d9fb14b54b78</uid>
    </listBank>
    <listHotel>
        <address>金鸡湖大道1355号</address>
        <cityID>226</cityID>
        <className>豪华型</className>
        <dpNum>479</dpNum>
        <hotelID>13329</hotelID>
        <intro>苏州维景国际大酒店位于苏州工业园区和市区交界处，交通便利，环境优美，酒店于2012年10月进行局部装修。</intro>
        <largePic>http://pic2.40017.cn/hotel/2015/1/26/17/34/J/1028adc2c06b4310836710725877e2a9_400x300_01.jpg</largePic>
        <lat>31.301568</lat>
        <lon>120.673399</lon>
        <name>苏州维景国际大酒店</name>
        <satisfaction>95%</satisfaction>
        <url>http://www.ly.com/HotelInfo-13329.html</url>
    </listHotel>
    <listHotel>
        <address>干将东路535号(地铁相门站1号出口,平江路正对面)</address>
        <cityID>226</cityID>
        <className>四星级</className>
        <dpNum>231</dpNum>
        <hotelID>10143</hotelID>
        <intro>苏州凯莱酒店位于苏州市中心，临近观前街、网师园、沧浪亭，离平江历史街区，仅几步之遥，距离新加坡工业园区约10分钟车程，距离高新技术开发区20分钟车程。</intro>
        <largePic>http://pic2.40017.cn/hotel/2014/8/10/7fafa7282cce42f9afc93c9b6c3a22e0_400x300_01.jpg</largePic>
        <lat>31.314403</lat>
        <lon>120.642523</lon>
        <name>苏州凯莱酒店</name>
        <satisfaction>88%</satisfaction>
        <url>http://www.ly.com/HotelInfo-10143.html</url>
    </listHotel>
    <listHotel>
        <address>观前街宫巷63号(地铁1号线乐桥站6号出口)</address>
        <cityID>226</cityID>
        <className>四星级</className>
        <dpNum>291</dpNum>
        <hotelID>135</hotelID>
        <intro>苏州雅戈尔富宫大酒店地处市中心观前街，“出门皆美食，百步逛观前”是该酒店优越地理位置的真实写照。</intro>
        <largePic>http://pic2.40017.cn/hotel/2014/8/4/e4e820c5286d42db84e369e976805136_400x300_01.jpg</largePic>
        <lat>31.31522</lat>
        <lon>120.632941</lon>
        <name>苏州雅戈尔富宫大酒店</name>
        <satisfaction>93%</satisfaction>
        <url>http://www.ly.com/HotelInfo-135.html</url>
    </listHotel>
    <listHotel>
        <address>十全街滚绣坊20号</address>
        <cityID>226</cityID>
        <className>高档型</className>
        <dpNum>381</dpNum>
        <hotelID>4156</hotelID>
        <intro>苏州南林饭店位于著名的娱乐酒吧一条街&#8212;&#8212;十全街，地处古城中心，毗邻繁华商业区，位置优越，交通便利。</intro>
        <largePic>http://pic2.40017.cn/hotel/2014/8/10/c5d5df90e70949349add037837000ea3_400x300_01.jpg</largePic>
        <lat>31.305797</lat>
        <lon>120.637563</lon>
        <name>苏州南林饭店</name>
        <satisfaction>98%</satisfaction>
        <url>http://www.ly.com/HotelInfo-4156.html</url>
    </listHotel>
    <listHotel>
        <address>东吴北路130号(位于吴中CBD与姑苏区结合部,近南门商业区及汽车南站,距观前街仅15分钟车程)</address>
        <cityID>226</cityID>
        <className>豪华型</className>
        <dpNum>164</dpNum>
        <hotelID>6648</hotelID>
        <intro>苏州苏苑饭店位于苏州东吴北路，临近宁沪高速、苏嘉杭高速的城区出入口，门口是苏州市南北主干道人民路，有多路公交直达观前商业圈、石路商业圈、苏州市火车站、汽车南站、汽车北站，到市内各大...</intro>
        <largePic>http://pic2.40017.cn/hotel/2014/8/10/7a8003ec8df049a78e83eff147f3c57b_400x300_01.jpg</largePic>
        <lat>31.279872</lat>
        <lon>120.634493</lon>
        <name>苏州苏苑饭店</name>
        <satisfaction>91%</satisfaction>
        <url>http://www.ly.com/HotelInfo-6648.html</url>
    </listHotel>
    <listHotel>
        <address>干将西路236号</address>
        <cityID>226</cityID>
        <className>舒适型</className>
        <dpNum>252</dpNum>
        <hotelID>62473</hotelID>
        <intro>苏州星耀国际酒店位于苏州市姑苏区，紧邻繁华的观前街和四大园林旅游区，距离苏州工业园区以及苏州新区仅需10分钟车程。</intro>
        <largePic>http://pic2.40017.cn/hotel/2014/8/9/a618228e725744158a8f5e577ab12e9c_400x300_01.jpg</largePic>
        <lat>31.311801</lat>
        <lon>120.621431</lon>
        <name>苏州星耀国际酒店</name>
        <satisfaction>95%</satisfaction>
        <url>http://www.ly.com/HotelInfo-62473.html</url>
    </listHotel>
    <listHotel>
        <address>平泷路158号(万达广场)</address>
        <cityID>226</cityID>
        <className>高档型</className>
        <dpNum>237</dpNum>
        <hotelID>63021</hotelID>
        <intro>苏州江南四季酒店位于苏州万达广场平泷路，临近观前街，坐拥黄金地段，往来交通便捷。</intro>
        <largePic>http://pic2.40017.cn/hotel/2014/8/9/496828c146e94cccbc37da5ae2c7142a_400x300_01.jpg</largePic>
        <lat>31.351447</lat>
        <lon>120.622973</lon>
        <name>苏州江南四季酒店</name>
        <satisfaction>99%</satisfaction>
        <url>http://www.ly.com/HotelInfo-63021.html</url>
    </listHotel>
    <listHotel>
        <address>干将西路380号(地铁1号线养育巷3号出口)</address>
        <cityID>226</cityID>
        <className>舒适型</className>
        <dpNum>107</dpNum>
        <hotelID>63326</hotelID>
        <intro>苏州汉傧精品酒店地处苏州古城中心学士街与干将西路交叉口，“干将桥头，运城河畔”；东邻观前步行街，西靠石路商业街，南接盘门景区，北连吴趋“阊门”，交通便利；距地铁一号线仅一步之遥。</intro>
        <largePic>http://pic2.40017.cn/hotel/2014/8/9/fdd90759e9f44026bc7a82eacb395244_400x300_01.jpg</largePic>
        <lat>31.31136</lat>
        <lon>120.617637</lon>
        <name>苏州汉傧精品酒店</name>
        <satisfaction>98%</satisfaction>
        <url>http://www.ly.com/HotelInfo-63326.html</url>
    </listHotel>
    <listHotel>
        <address>太监弄31号人民商场对面珍珠弄)。停车可至玄妙广场地下停车场,酒店每日提供一张免费停车券。出口处向北100米可至酒店</address>
        <cityID>226</cityID>
        <className>舒适型</className>
        <dpNum>50</dpNum>
        <hotelID>295488</hotelID>
        <intro>苏州天逅主题酒店地处观前步行街中心位置，毗邻多家大型商场、影城、美食一条街。</intro>
        <largePic>http://pic2.40017.cn/hotel/2014/10/17/2/23/T/6fa15d0cad654b97b4b5b20316356df0_400x300_01.jpg</largePic>
        <lat>31.316143</lat>
        <lon>120.631542</lon>
        <name>苏州天逅主题酒店</name>
        <satisfaction>100%</satisfaction>
        <url>http://www.ly.com/HotelInfo-295488.html</url>
    </listHotel>
    <listHotel>
        <address>启月街299号</address>
        <cityID>226</cityID>
        <className>豪华型</className>
        <dpNum>101</dpNum>
        <hotelID>13396</hotelID>
        <intro>苏州独墅湖世尊酒店位于苏州工业园区月亮湾北，是园区首家五星级标准的休闲度假特色酒店。</intro>
        <largePic>http://pic2.40017.cn/hotel/2014/8/10/6211f7a3f51b47c990253d09af7e89d6_400x300_01.jpg</largePic>
        <lat>31.272278</lat>
        <lon>120.727797</lon>
        <name>苏州独墅湖世尊酒店</name>
        <satisfaction>97%</satisfaction>
        <url>http://www.ly.com/HotelInfo-13396.html</url>
    </listHotel>
    <listHotel>
        <address>独墅湖月亮湾路8号</address>
        <cityID>226</cityID>
        <className>豪华型</className>
        <dpNum>117</dpNum>
        <hotelID>58455</hotelID>
        <intro>苏州福朋喜来登酒店作为喜来登的姐妹品牌，将以诚信、简约、舒适的核心价值为客人提供全套酒店服务。</intro>
        <largePic>http://pic2.40017.cn/hotel/2014/8/9/2366b1d67f2b47a0b624aa5aa860280f_400x300_01.jpg</largePic>
        <lat>31.267012</lat>
        <lon>120.727527</lon>
        <name>苏州福朋喜来登酒店</name>
        <satisfaction>93%</satisfaction>
        <url>http://www.ly.com/HotelInfo-58455.html</url>
    </listHotel>
    <listHotel>
        <address>独墅湖高教区林泉街文荟广场366号</address>
        <cityID>226</cityID>
        <className>经济型</className>
        <dpNum>339</dpNum>
        <hotelID>84105</hotelID>
        <intro>苏州绿地商务酒店建立于2009年，是一家位于苏州市工业园区独墅湖高教区内的商务型酒店。</intro>
        <largePic>http://pic2.40017.cn/hotel/2014/8/9/f48917ec13c64dea9f4ea86ef0d3fae2_400x300_01.jpg</largePic>
        <lat>31.275345</lat>
        <lon>120.754898</lon>
        <name>苏州绿地商务酒店</name>
        <satisfaction>95%</satisfaction>
        <url>http://www.ly.com/HotelInfo-84105.html</url>
    </listHotel>
    <listHotel>
        <address>思安街36号</address>
        <cityID>226</cityID>
        <className>四星级</className>
        <dpNum>218</dpNum>
        <hotelID>1752</hotelID>
        <intro>苏州建屋国际酒店地处苏州工业园区星湖街金鸡湖商业广场，紧邻国际博览中心、园区行政中心、圆融时代广场、久光百货；周围有金鸡湖畔、科技文化中心及李公堤商业街；酒店往来沪宁高速、苏嘉杭高...</intro>
        <largePic>http://pic2.40017.cn/hotel/2014/8/10/47704ab1d4634cd49943e2681cdb8420_400x300_01.jpg</largePic>
        <lat>31.323456</lat>
        <lon>120.725187</lon>
        <name>苏州建屋国际酒店</name>
        <satisfaction>97%</satisfaction>
        <url>http://www.ly.com/HotelInfo-1752.html</url>
    </listHotel>
    <listHotel>
        <address>葑亭大道渔泾路9号</address>
        <cityID>226</cityID>
        <className>四星级</className>
        <dpNum>89</dpNum>
        <hotelID>45356</hotelID>
        <intro> 苏州戴斯酒店位于苏州工业园区葑亭大道渔泾路口，按照五星标准建造，由美国戴斯酒店集团(中国)全权经营管理。</intro>
        <largePic>http://pic2.40017.cn/hotel/2014/8/14/6/37/S/d577ec33235b4d38a242548c18c68d95_400x300_01.jpg</largePic>
        <lat>31.351453</lat>
        <lon>120.704432</lon>
        <name>苏州戴斯酒店</name>
        <satisfaction>94%</satisfaction>
        <url>http://www.ly.com/HotelInfo-45356.html</url>
    </listHotel>
</Travel>
